[
  {
    "name": "VivoCity",
    "lat": 1.264293167839738,
    "lng": 103.8223046936493
  },
  {
    "name": "ION Orchard",
    "lat": 1.303979741445055,
    "lng": 103.832032328465
  },
  {
    "name": "Bugis Junction",
    "lat": 1.299112874758746,
    "lng": 103.8554111737573
  },
  {
    "name": "Tampines Mall",
    "lat": 1.352527372785196,
    "lng": 103.9446987510717
  },
  {
    "name": "Jurong Point",
    "lat": 1.339452716614461,
    "lng": 103.7066850128896
  },
  {
    "name": "Causeway Point",
    "lat": 1.436070065080311,
    "lng": 103.7859815242531
  },
  {
    "name": "Northpoint City",
    "lat": 1.427902889913047,
    "lng": 103.8361776509723
  },
  {
    "name": "NEX",
    "lat": 1.350769352578452,
    "lng": 103.8722961438613
  },
  {
    "name": "AMK Hub",
    "lat": 1.369389226903445,
    "lng": 103.8484779659393
  },
  {
    "name": "Bedok Mall",
    "lat": 1.324736327847299,
    "lng": 103.929256259998
  },
  {
    "name": "Waterway Point",
    "lat": 1.406536116905548,
    "lng": 103.9019881717097
  },
  {
    "name": "Eastpoint Mall",
    "lat": 1.342705923555769,
    "lng": 103.9530246182335
  },
  {
    "name": "White Sands",
    "lat": 1.372449816635281,
    "lng": 103.9497156947368
  },
  {
    "name": "Lot One",
    "lat": 1.385069923256194,
    "lng": 103.7452388682375
  },
  {
    "name": "West Mall",
    "lat": 1.350019209798456,
    "lng": 103.7492448006772
  },
  {
    "name": "Clementi Mall",
    "lat": 1.314896196393653,
    "lng": 103.764423054189
  },
  {
    "name": "The Star Vista",
    "lat": 1.306970440383233,
    "lng": 103.7884202741146
  },
  {
    "name": "Holland Village",
    "lat": 1.312102865829644,
    "lng": 103.7937742789214
  },
  {
    "name": "Rochester Mall",
    "lat": 1.305407655699619,
    "lng": 103.788446680148
  },
  {
    "name": "Buona Vista MRT",
    "lat": 1.306275348232579,
    "lng": 103.7903632001254
  },
  {
    "name": "Plaza Singapura",
    "lat": 1.300747709639166,
    "lng": 103.8450475734308
  },
  {
    "name": "Orchard Gateway",
    "lat": 1.300443252795456,
    "lng": 103.8394427800415
  },
  {
    "name": "313@somerset",
    "lat": 1.301014364040584,
    "lng": 103.8383606644851
  },
  {
    "name": "Far East Plaza",
    "lat": 1.307176980711882,
    "lng": 103.833792932243
  },
  {
    "name": "Lucky Plaza",
    "lat": 1.304506046466357,
    "lng": 103.8339623398165
  },
  {
    "name": "Ngee Ann City",
    "lat": 1.30224168528687,
    "lng": 103.8351819122969
  },
  {
    "name": "Wisma Atria",
    "lat": 1.303704774261485,
    "lng": 103.8332057528079
  },
  {
    "name": "Mandarin Gallery",
    "lat": 1.302004717319636,
    "lng": 103.8365839658053
  },
  {
    "name": "The Cathay",
    "lat": 1.2992060914543,
    "lng": 103.8478268172409
  },
  {
    "name": "Cineleisure Orchard",
    "lat": 1.30152101873534,
    "lng": 103.8364296550156
  },
  {
    "name": "Liat Towers",
    "lat": 1.305087227108509,
    "lng": 103.8307225811675
  },
  {
    "name": "Shaw Centre",
    "lat": 1.306113346556505,
    "lng": 103.8319705818116
  },
  {
    "name": "Wheelock Place",
    "lat": 1.304676287302523,
    "lng": 103.8306420275763
  },
  {
    "name": "Paragon",
    "lat": 1.303872308799947,
    "lng": 103.8358575454689
  },
  {
    "name": "The Heeren",
    "lat": 1.302651601424818,
    "lng": 103.837367213158
  },
  {
    "name": "Raffles City",
    "lat": 1.291207738822867,
    "lng": 103.8575407368861
  },
  {
    "name": "Suntec City",
    "lat": 1.293501325355585,
    "lng": 103.8573074958241
  },
  {
    "name": "Marina Square",
    "lat": 1.27894148629275,
    "lng": 103.8512560399742
  },
  {
    "name": "Millenia Walk",
    "lat": 1.292605444624933,
    "lng": 103.8597249444427
  },
  {
    "name": "The Shoppes at MBS",
    "lat": 1.284234960270269,
    "lng": 103.8589822826982
  },
  {
    "name": "Parkway Parade",
    "lat": 1.301069755063101,
    "lng": 103.9052794915233
  },
  {
    "name": "112 Katong",
    "lat": 1.305206536173404,
    "lng": 103.9050461102276
  },
  {
    "name": "Siglap Centre",
    "lat": 1.312581729426636,
    "lng": 103.9232502072965
  },
  {
    "name": "Tampines 1",
    "lat": 1.343429662402032,
    "lng": 103.9323543336982
  },
  {
    "name": "Century Square",
    "lat": 1.35236829566862,
    "lng": 103.9438123022526
  },
  {
    "name": "Our Tampines Hub",
    "lat": 1.35354740485205,
    "lng": 103.9403811045466
  },
  {
    "name": "Changi City Point",
    "lat": 1.334036379027078,
    "lng": 103.9629176155306
  },
  {
    "name": "Jewel Changi Airport",
    "lat": 1.360341006610217,
    "lng": 103.9890775502096
  },
  {
    "name": "Downtown East",
    "lat": 1.380177501074833,
    "lng": 103.9551506591417
  },
  {
    "name": "Pasir Ris Mall",
    "lat": 1.373824377794677,
    "lng": 103.9487488736156
  },
  {
    "name": "Hougang Mall",
    "lat": 1.372491186358026,
    "lng": 103.8937740666245
  },
  {
    "name": "Greenwich V",
    "lat": 1.387395393970164,
    "lng": 103.8691359781725
  },
  {
    "name": "Compass One",
    "lat": 1.39205314156707,
    "lng": 103.8950705438402
  },
  {
    "name": "Rivervale Mall",
    "lat": 1.392197778384503,
    "lng": 103.9044716000245
  },
  {
    "name": "Punggol Plaza",
    "lat": 1.39423719717118,
    "lng": 103.913047323223
  },
  {
    "name": "Junction 8",
    "lat": 1.350481253450499,
    "lng": 103.848760473211
  },
  {
    "name": "Thomson Plaza",
    "lat": 1.354362827234498,
    "lng": 103.83030941613
  },
  {
    "name": "Velocity@Novena Square",
    "lat": 1.31978949204524,
    "lng": 103.8440335691985
  },
  {
    "name": "United Square",
    "lat": 1.317194509885588,
    "lng": 103.8436114430376
  },
  {
    "name": "Novena Square",
    "lat": 1.319967484391867,
    "lng": 103.8438506309924
  },
  {
    "name": "Square 2",
    "lat": 1.320705109568455,
    "lng": 103.8441607096606
  },
  {
    "name": "Toa Payoh HDB Hub",
    "lat": 1.332013870059354,
    "lng": 103.8498494966202
  },
  {
    "name": "Balestier Hill",
    "lat": 1.325595948393109,
    "lng": 103.8425716129677
  },
  {
    "name": "Mustafa Centre",
    "lat": 1.310112131903957,
    "lng": 103.8552908739255
  },
  {
    "name": "City Square Mall",
    "lat": 1.311421031076843,
    "lng": 103.8566240199911
  },
  {
    "name": "Farrer Park",
    "lat": 1.311980979625632,
    "lng": 103.8547481544883
  },
  {
    "name": "Paya Lebar Quarter",
    "lat": 1.317708868989965,
    "lng": 103.8934146635971
  },
  {
    "name": "Kinex",
    "lat": 1.314618498892422,
    "lng": 103.8947380047679
  },
  {
    "name": "Geylang Serai Market",
    "lat": 1.316725150053125,
    "lng": 103.8979774113919
  },
  {
    "name": "Kallang Wave Mall",
    "lat": 1.30307515150401,
    "lng": 103.8731497075906
  },
  {
    "name": "Leisure Park Kallang",
    "lat": 1.302301084052293,
    "lng": 103.8764739758827
  },
  {
    "name": "Queensway Shopping Centre",
    "lat": 1.287595189398704,
    "lng": 103.8033972877883
  },
  {
    "name": "IKEA Alexandra",
    "lat": 1.287974318866028,
    "lng": 103.8058087719127
  },
  {
    "name": "Anchorpoint",
    "lat": 1.288934779744979,
    "lng": 103.8056077793991
  },
  {
    "name": "Alexandra Retail Centre",
    "lat": 1.27414893629255,
    "lng": 103.8013994166651
  },
  {
    "name": "Harbourfront Centre",
    "lat": 1.263969911760048,
    "lng": 103.8202433251803
  },
  {
    "name": "Telok Blangah Mall",
    "lat": 1.265343451926248,
    "lng": 103.8210690106148
  }
]